,fid,Date,Age,Injury Type,Vehicle Type,City,Street,Detailed Street,Link,Address,location,lat,long,Age Range,WKT,Injury Type_eng
0,3,2018-07-05,16.0,בינוני-קשה,אופניים חשמליים,פתח תקווה,בן חור,,http://mynetpetahtikva.co.il/article/303944/3,"פתח תקווה, בן חור","אליהו בן חור, אם המושבות החדשה, פתח תקווה, מחוז המרכז, NO, ישראל",32.1075075,34.8765451,11 to 20,Point (34.8765451 32.1075075),Serious
1,4,2018-07-06,50.0,אנוש,אופניים,,מחלף ראש העין מזרח,כביש 5,http://mynetroshhaayin.co.il/article/304000/3,", מחלף ראש העין מזרח","מחלף ראש העין מזרח, חוצה שומרון, ראש העין, מחוז המרכז, NO",32.101811,34.9782898,40 to 50,Point (34.9650014 32.10559282),Critical
2,5,2018-07-07,27.0,הרוג,אופניים חשמליים,ירושלים,עוזי נרקיס,,http://mynetjerusalem.co.il/article/304094/4,"ירושלים, עוזי נרקיס","האלוף עוזי נרקיס, קרית מנחם בגין, שועפט, ירושלים, מחוז ירושלים, NO",31.8164577,35.2355402,21 to 30,Point (35.2355402 31.8164577),Death
3,6,2018-07-08,8.0,הרוג,אופניים,סלעית,סלעית,,"https://www.ynet.co.il/articles/0,7340,L-5306506,00.html","סלעית, סלעית","סלעית/יסעור, סלעית, ערד, מחוז הדרום, NO, ישראל",31.266409,35.21135,Under 10,Point (35.05069074 32.24303169),Death
4,7,2018-07-13,8.0,בינוני,אופניים,חיפה,חניתה,חניתה פינת טרומפלדור,https://haipo.co.il/item/101476,"חיפה, חניתה","חניתה, חיפה, נוה שאנן, חיפה, מחוז חיפה, NO, ישראל",32.7862429,35.0174697,Under 10,Point (35.01787883 32.78540191),Moderate
5,8,2018-07-16,,בינוני,אופניים,חיפה,הנביאים,,https://haipo.co.il/item/101660,"חיפה, הנביאים","הנביאים, חיפה, הדר הכרמל, חיפה, מחוז חיפה, NO, ישראל",32.8129956,34.995452,Unknown,Point (34.995452 32.8129956),Moderate
6,9,2018-07-16,,קשה,אופניים חשמליים,ראשון לציון,צומת בית דגן,,http://www.kolhazman.co.il/322936,"ראשון לציון, צומת בית דגן","צומת בית דגן, השבעה, נחלת יהודה, ראשון לציון, מחוז המרכז, NO, ישראל",32.002455,34.820515,Unknown,Point (34.820515 32.002455),Severe
7,10,2018-07-16,16.0,בינוני,אופניים חשמליים,,צומת קרית חיים,כביש 4,https://haipo.co.il/item/101658,", צומת קרית חיים","צומת קרית חיים, שדרות ההסתדרות, קרית חיים, קריית חיים מזרחית, חיפה, מחוז חיפה, NO, ישראל",32.817155,35.076678,11 to 20,Point (35.07712691 32.81758686),Moderate
8,11,2018-07-23,63.0,קשה,אופניים חשמליים,רמת גן,ז'בוטינסקי,,http://www.maariv.co.il/breaking-news/Article-652707,"רמת גן, ז'בוטינסקי","ז'בוטינסקי, גבעת שמואל, רמת גן, מחוז תל אביב, NO, ישראל",32.0718863,34.8509527,Over 60,Point (34.8509527 32.0718863),Severe
9,12,2018-07-25,54.0,בינוני,אופניים חשמליים,קרית אונו,לוי אשכול,,http://www.israelhayom.co.il/article/574219,"קרית אונו, לוי אשכול","קרית אונו, 23, לוי אשכול, קריית אונו, מחוז תל אביב, NO, ישראל",32.0637716,34.8616367,50 to 60,Point (34.8616367 32.0637716),Moderate
10,13,2018-07-26,13.0,בינוני,אופניים חשמליים,בני ברק,גניחובסקי,הרב שלמה יוסף גניחובסקי,http://www.maariv.co.il/breaking-news/Article-653251,"בני ברק, גניחובסקי","גניחובסקי, פרדס כץ, בני ברק, מחוז תל אביב, NO, ישראל",32.0990657,34.841524,11 to 20,Point (34.841524 32.0990657),Moderate
11,1,2018-07-29,40.0,בינוני,אופניים חשמליים,ירושלים,צבי נוימן,,https://www.0404.co.il/?p=211326,"ירושלים, צבי נוימן",None,32.0,34.0,30 to 40,Point (35.21806097 31.74658945),Moderate
12,14,2018-07-29,8.0,קל,אופניים חשמליים,אשדוד,בני ברית,"שד' בני ברית פינת הפלמ""ח",https://www.ashdodnet.com/article/307867/7,"אשדוד, בני ברית","מעבר בני ברית העצמאות, רובע ה', אשדוד, מחוז הדרום, NO, ישראל",31.7911515,34.6489388388525,Under 10,Point (34.66025744 31.80474683),Minor
13,15,2018-08-01,31.0,בינוני,אופניים חשמליים,פתח תקווה,חיים עוזר,,http://www.kolhazman.co.il/328692,"פתח תקווה, חיים עוזר","חיים עוזר, מרכז העיר, פתח תקווה, מחוז המרכז, NO, ישראל",32.0853546,34.8877248,30 to 40,Point (34.8877248 32.0853546),Moderate
14,16,2018-08-03,30.0,אנוש,אופניים,הרצליה,מחלף הסירה,כביש 2 - מחלף הסירה לכיוון גלילות,"http://www.local.co.il/document/52,80,154514.aspx","הרצליה, מחלף הסירה","מחלף הסירה, דרך תל-אביב, הרצליה ב', הרצליה, מחוז תל אביב, NO, ישראל",32.159868,34.810438,21 to 30,Point (34.810438 32.159868),Critical
15,17,2018-08-04,8.0,בינוני,אופניים,פתח תקווה,ז'בוטינסקי,,https://www.mivzaklive.co.il/archives/198136,"פתח תקווה, ז'בוטינסקי","זאב ז'בוטינסקי, אזור התעשייה קריית אריה, פתח תקווה, מחוז המרכז, NO, ישראל",32.0926245,34.8469364,Under 10,Point (34.8469364 32.0926245),Moderate
16,18,2018-08-04,26.0,בינוני,אופניים,בני ברק,ז'בוטינסקי,,https://www.mivzaklive.co.il/archives/198161,"בני ברק, ז'בוטינסקי","זאב ז'בוטינסקי, תל גיבורים, בני ברק, מחוז תל אביב, NO, ישראל",32.0904386,34.82152,21 to 30,Point (34.82152 32.0904386),Moderate
17,19,2018-08-12,25.0,קשה,אופניים,תל אביב,לוינסקי,,http://www.maariv.co.il/breaking-news/Article-655996,"תל אביב, לוינסקי","לוינסקי, תל אביב - יפו, נווה שאנן, תל אביב-יפו, מחוז תל אביב, NO, ישראל",32.0569753,34.7790316,21 to 30,Point (34.7790316 32.0569753),Severe
18,20,2018-08-15,20.0,הרוג,אופניים,חיפה,פרויד,פרויד פינת וולנברג,https://news.walla.co.il/item/3181323,"חיפה, פרויד","פרויד, חיפה, רמת אשכול, חיפה, מחוז חיפה, NO, ישראל",32.7806039,34.9880739,11 to 20,Point (34.98693294 32.77848045),Death
19,21,2018-08-15,40.0,קשה,אופניים חשמליים,רמת גן,עודד,,https://www.0404.co.il/?p=223753,"רמת גן, עודד","עודד, תל אביב - יפו, רמת גן, מחוז תל אביב, NO, ישראל",32.0563205,34.8112014,30 to 40,Point (34.8112014 32.0563205),Severe
20,22,2018-08-16,50.0,הרוג,אופניים חשמליים,בני ברק,עזרא,"עזרא פינת חידושי הרי""ם",http://www.ch10.co.il/news/453387/,"בני ברק, עזרא","עזרא, הר שלום, בני ברק, מחוז תל אביב, NO, ישראל",32.0799235,34.8388872,40 to 50,Point (34.83579148 32.07623373),Death
21,23,2018-08-18,55.0,קל,אופניים חשמליים,אשדוד,מורדי הגטאות,,https://www.ashdodnet.com/article/311053/2,"אשדוד, מורדי הגטאות","מורדי הגטאות, רובע ב', אשדוד, מחוז הדרום, NO, ישראל",31.8055502,34.6584496,50 to 60,Point (34.6584496 31.8055502),Minor
22,24,2018-08-22,18.0,בינוני,אופניים,רמלה,יחזקאל,,https://www.0404.co.il/?p=229151,"רמלה, יחזקאל","יחזקאל, גני דן, ג'ואריש, רמלה, מחוז המרכז, NO, ישראל",31.9202081,34.8665292,11 to 20,Point (34.8665292 31.9202081),Moderate
23,25,2018-08-22,17.0,בינוני,אופניים חשמליים,אשדוד,עובד בן עמי,בשדרות עובד בן עמי פינת משה דיין,https://www.0404.co.il/?p=229315,"אשדוד, עובד בן עמי",None,32.0,34.0,11 to 20,Point (34.63055646 31.79023955),Moderate
24,26,2018-08-24,35.0,הרוג,אופניים,אשקלון,דוד בן גוריון,"שד' דוד בן גוריון, צומת נאות אשקלון",https://www.kan-ashkelon.co.il/news/23970,"אשקלון, דוד בן גוריון","David Ben Gurion, הסיטי, אשקלון, מחוז הדרום, NO, ישראל",31.6683733,34.5566335,30 to 40,Point (34.57373903 31.66148152),Death
25,27,2018-08-29,13.0,בינוני,אופניים,יפו,ירושלים,,http://www.maariv.co.il/breaking-news/Article-659020,"יפו, ירושלים","יפו, המשולש, מאה שערים, ירושלים, מחוז ירושלים, NO, ישראל",31.7819355,35.2198234,11 to 20,Point (35.2198234 31.7819355),Moderate
26,28,2018-08-30,16.0,בינוני,אופניים,חיפה,יצחק בן צבי,,https://www.0404.co.il/?p=235202,"חיפה, יצחק בן צבי","יצחק בן צבי, קרית חיים, קריית חיים מזרחית, חיפה, מחוז חיפה, NO, ישראל",32.8182406,35.069054,11 to 20,Point (35.069054 32.8182406),Moderate
27,29,2018-08-30,12.0,בינוני,אופניים חשמליים,שבלי,,,http://www.maariv.co.il/breaking-news/Article-659201,שבלי,"شبلي, מחוז הצפון, ישראל",32.6937221,35.3960008,11 to 20,Point (35.3960008 32.6937221),Moderate
28,30,2018-08-31,15.0,בינוני,אופניים חשמליים,אשקלון,צומת בת הדר,,https://www.10.tv/news/171528,"אשקלון, צומת בת הדר","צומת בת הדר, 4, מועצה אזורית חוף אשקלון, מחוז הדרום, NO, ישראל",31.647126,34.594188,11 to 20,Point (34.594188 31.647126),Moderate
29,31,2018-08-31,14.0,קשה,אופניים חשמליים,באר שבע,החשמונאים,,http://www.maariv.co.il/breaking-news/Article-659332,"באר שבע, החשמונאים","החשמונאים, נחל עשן (נווה מנחם), באר שבע, מחוז הדרום, NO, ישראל",31.2677458,34.7605595,11 to 20,Point (34.7605595 31.2677458),Severe
30,32,2018-08-31,16.0,הרוג,אופניים חשמליים,אשקלון,צומת בת הדר,,https://www.10.tv/news/171528,"אשקלון, צומת בת הדר","צומת בת הדר, 4, מועצה אזורית חוף אשקלון, מחוז הדרום, NO, ישראל",31.647126,34.594188,11 to 20,Point (34.594188 31.647126),Death
31,33,2018-09-02,42.0,קל,אופניים חשמליים,אשדוד,קיבוץ גלויות,,http://www.kolhazman.co.il/337352,"אשדוד, קיבוץ גלויות","קיבוץ גלויות, רובע ב', אשדוד, מחוז הדרום, NO, ישראל",31.8014634,34.6505481,40 to 50,Point (34.6505481 31.8014634),Minor
32,34,2018-09-02,60.0,הרוג,אופניים חשמליים,לוד,מחלף רמלה לוד,כיבש 40 - מחלף רלמה-לוד לצומת אחיסמך,https://www.israelhayom.co.il/article/584255,"לוד, מחלף רמלה לוד",None,32.0,34.0,50 to 60,Point (34.88532343 31.92495247),Death
33,35,2018-09-11,16.0,קשה,אופניים חשמליים,פתח תקווה,מחלף שעריה,כביש 40 - מחלף שעריה,http://mynetpetahtikva.co.il/article/314636/3,"פתח תקווה, מחלף שעריה","מחלף שעריה, כביש מכבית, גני הדר, פתח תקווה, מחוז המרכז, NO, ישראל",32.0672565,34.9110939,11 to 20,Point (34.90344313 32.06826501),Severe
34,36,2018-09-12,30.0,קשה,אופניים חשמליים?,רמת גן,הראה,הראה פינת חד נס,https://www.srugim.co.il/277599-%D7%A2%D7%A3-10-%D7%9E%D7%98%D7%A8%D7%99%D7%9D-%D7%A8%D7%95%D7%9B%D7%91-%D7%90%D7%95%D7%A4%D7%A0%D7%99%D7%99%D7%9D-%D7%A0%D7%A4%D7%A6%D7%A2-%D7%A7%D7%A9%D7%94-%D7%9E%D7%A4%D7%92%D7%99%D7%A2%D7%AA,"רמת גן, הראה","חיבת ציון/הרא''ה, חיבת ציון, הלל, מרום נווה, רמת גן, מחוז תל אביב, NO, ישראל",32.079233,34.825057,21 to 30,Point (34.82395399 32.06592444),Severe
35,37,2018-09-13,50.0,בינוני,אופניים חשמליים,פתח תקווה,הברון הירש,,http://mynetpetahtikva.co.il/article/315099/5,"פתח תקווה, הברון הירש","פינסקר / הברון הירש, פינסקר, קרול, פתח תקווה, מחוז המרכז, NO, ישראל",32.090754,34.884491,40 to 50,Point (34.884491 32.090754),Moderate
36,2,2018-09-13,15.0,בינוני,אופניים חשמליים,לוד,,,http://www.maariv.co.il/breaking-news/Article-661125,לוד,"לוד, מחוז המרכז, ישראל",31.9489012,34.8884857,11 to 20,Point (34.8884857 31.9489012),Moderate
37,38,2018-09-15,14.0,בינוני,אופניים חשמליים,אשקלון,אלי כהן,,http://www.maariv.co.il/breaking-news/Article-661274,"אשקלון, אלי כהן","אלי כהן, אשכולי פז, אשקלון, מחוז הדרום, NO, ישראל",31.666406,34.5648758,11 to 20,Point (34.5648758 31.666406),Moderate
38,39,2018-09-16,15.0,בינוני,אופניים חשמליים,אשדוד,הציונות,,https://www.kan-ashdod.co.il/law/39565,"אשדוד, הציונות","הציונות, רובע הקריה, אשדוד, מחוז הדרום, NO, ישראל",31.7848825,34.6414328,11 to 20,Point (34.6414328 31.7848825),Moderate
39,40,2018-09-16,17.0,בינוני-קשה,אופניים חשמליים,אשדוד,הציונות,,https://www.kan-ashdod.co.il/law/39565,"אשדוד, הציונות","הציונות, רובע הקריה, אשדוד, מחוז הדרום, NO, ישראל",31.7848825,34.6414328,11 to 20,Point (34.6414328 31.7848825),Serious
40,41,2018-09-16,14.0,בינוני,אופניים חשמליים,פתח תקווה,אם המושבות,,http://mynetpetahtikva.co.il/article/315327/7,"פתח תקווה, אם המושבות","אם המושבות, אזור התעשייה קריית אריה, פתח תקווה, מחוז המרכז, NO, ישראל",32.1026101,34.863928,11 to 20,Point (34.863928 32.1026101),Moderate
41,42,2018-09-17,30.0,קשה,אופניים חשמליים,פתח תקווה,אם המושבות,,https://www.0404.co.il/?p=248103,"פתח תקווה, אם המושבות","אם המושבות, אזור התעשייה קריית אריה, פתח תקווה, מחוז המרכז, NO, ישראל",32.1026101,34.863928,21 to 30,Point (34.863928 32.1026101),Severe
42,43,2018-09-20,15.0,בינוני,אופניים חשמליים,אשדוד,הציונות,,"http://www.local.co.il/document/52,76,156445.aspx","אשדוד, הציונות","הציונות, רובע הקריה, אשדוד, מחוז הדרום, NO, ישראל",31.7848825,34.6414328,11 to 20,Point (34.6414328 31.7848825),Moderate
43,44,2018-09-22,11.0,בינוני,אופניים חשמליים,אלעד,יוסף קארו,,http://www.ch10.co.il/news/459401/,"אלעד, יוסף קארו","רבי יוסף קארו, אלעד, מחוז המרכז, NO, ישראל",32.0489389,34.9652485,11 to 20,Point (34.9652485 32.0489389),Moderate
44,45,2018-09-24,16.0,בינוני,אופניים,סח'נין,,,http://www.maariv.co.il/breaking-news/Article-662363,סח'נין,"سخنين, מחוז הצפון, ישראל",32.8638052,35.3023184,11 to 20,Point (35.3023184 32.8638052),Moderate
45,46,2018-09-24,16.0,הרוג,אופניים חשמליים,תל אביב,שדרות רוקח,,"https://www.ynet.co.il/articles/0,7340,L-5356969,00.html","תל אביב, שדרות רוקח","שדרות רוקח, תל אביב - יפו, כוכב הצפון, תל אביב-יפו, מחוז תל אביב, NO, ישראל",32.0986296,34.7811706,11 to 20,Point (34.7811706 32.0986296),Death
46,47,2018-09-24,16.0,בינוני,אופניים חשמליים,תל אביב,שדרות רוקח,,"https://www.ynet.co.il/articles/0,7340,L-5356969,00.html","תל אביב, שדרות רוקח","שדרות רוקח, תל אביב - יפו, כוכב הצפון, תל אביב-יפו, מחוז תל אביב, NO, ישראל",32.0986296,34.7811706,11 to 20,Point (34.7811706 32.0986296),Moderate
47,48,2018-09-27,17.0,קל,אופניים חשמליים,בת ים,בלפור,בלפור פינת יצחק שדה,https://www.hashikma-batyam.co.il/news/6350/,"בת ים, בלפור","בלפור, בת ים, שיכון ותיקים, בת ים, מחוז תל אביב, NO, ישראל",32.0224339,34.7454766,11 to 20,Point (34.74188256 32.01126345),Minor
48,49,2018-09-27,21.0,בינוני,אופניים חשמליים,בני ברק,הרב אהרונסון,,https://www.0404.co.il/?p=254434,"בני ברק, הרב אהרונסון","הרב אהרונסון/דוד פנקס, אהרונסון, הר שלום, בני ברק, מחוז תל אביב, NO, ישראל",32.081032,34.827542,21 to 30,Point (34.827542 32.081032),Moderate
49,50,2018-09-28,30.0,קשה,אופניים,אפרת-אלעזר,כביש 60,,http://www.maariv.co.il/breaking-news/Article-662984,"אפרת-אלעזר, כביש 60",None,32.0,34.0,21 to 30,Point (35.14664691 31.65868215),Severe
50,51,2018-09-30,21.0,קשה,אופניים חשמליים,ראשון לציון,ירושלים,,"https://www.mivzaklive.co.il/archives/207999; http://www.local.co.il/document/52,93,156594.aspx","ראשון לציון, ירושלים","ראשון לציון, מחוז המרכז, ישראל",31.9635712,34.8101149,21 to 30,Point (34.8101149 31.9635712),Severe
51,52,2018-10-02,35.0,בינוני,אופניים חשמליים,אשקלון,התחייה,,https://www.mivzaklive.co.il/archives/208169,"אשקלון, התחייה","התחיה, אזור התעשיה הקלה, אשקלון, מחוז הדרום, NO, ישראל",31.6549871,34.584551,30 to 40,Point (34.584551 31.6549871),Moderate
52,53,2018-10-03,16.0,בינוני,אופניים חשמליים,שדרות,,,https://www.0404.co.il/?p=258460,שדרות,"שדרות, מחוז הדרום, ישראל",31.526474,34.5969679,11 to 20,Point (34.5969679 31.526474),Moderate
53,54,2018-10-05,36.0,בינוני,אופניים חשמליים,ראשון לציון,דוד סחרוב,,https://www.hashikma-rishon.co.il/news/14850,"ראשון לציון, דוד סחרוב","דוד סחרוב, אזור תעשייה חדש, נווה דקלים, ראשון לציון, מחוז המרכז, NO, ישראל",31.9931478,34.7666658,30 to 40,Point (34.7666658 31.9931478),Moderate
54,55,2018-10-08,27.0,קל,אופניים חשמליים,אשדוד,"רש""י","רש""י פינת רבינו גרשום",https://www.ashdodnet.com/article/318139/3,"רש""י, אשדוד","שדרות רש''י/מטולה, רש י, רובע ט', אשדוד, מחוז הדרום, NO, ישראל",31.785136,34.663801,21 to 30,Point (34.66091489 31.78636527),Minor
55,56,2018-10-08,19.0,בינוני,אופניים חשמליים,בת ים,בן גוריון,,http://www.maariv.co.il/breaking-news/Article-664554,"בן גוריון, בת ים","בן גוריון, בת ים, שיכון ותיקים, בת ים, מחוז תל אביב, NO, ישראל",32.0210655,34.7393492,11 to 20,Point (34.7393492 32.0210655),Moderate
56,57,2018-10-11,60.0,קשה,אופניים חשמליים,עכו,בן עמי,,https://www.mivzaklive.co.il/archives/209958,"בן עמי, עכו","בן עמי, קרית וולפסון, עכו, מחוז הצפון, NO, ישראל",32.923926,35.083186,50 to 60,Point (35.083186 32.923926),Severe
57,58,2018-10-14,15.0,בינוני,אופניים,רחובות,"הגר""א",,http://mynetrehovot.co.il/article/319146/3,"רחובות, הגר""א","רחובות, מחוז המרכז, ישראל",31.8952532,34.8105616,11 to 20,Point (34.81579246 31.90240677),Moderate
58,59,2018-10-18,50.0,בינוני,אופניים,אשקלון,שדרות דוד בן גוריון,,https://www.0404.co.il/?p=274704,"שדרות דוד בן גוריון, אשקלון","שדרות דוד בן גוריון, אזור התעשיה הצפוני, אשקלון, מחוז הדרום, NO, ישראל",31.6587274,34.6026425,40 to 50,POINT (34.6026425 31.6587274),Moderate
59,60,2018-10-19,50.0,הרוג,אופניים חשמליים,ברכיה,,,"https://www.ynet.co.il/articles/0,7340,L-5374987,00.html",ברכיה,"ברכיה, מחוז הדרום, ישראל",31.6678257,34.6268196,40 to 50,POINT (34.6268196 31.6678257),Death
60,61,2018-10-20,16.0,קל,אופניים חשמליים,אשדוד,הרצל,הרצל פינת הר שומרון,https://www.kan-ashdod.co.il/news/41877,"הרצל, אשדוד","שדרות הרצל, רובע ד', אשדוד, מחוז הדרום, NO, ישראל",31.7989971,34.6451846,11 to 20,POINT (34.6451846 31.7989971),Minor
61,62,2018-10-25,19.0,בינוני,אופניים חשמליים,מוקייבלה,,בכניסה למוקייבלה,https://www.maariv.co.il/breaking-news/Article-667572,מוקייבלה,"مطار المقيبلة, طريق العسكري, الطورة, محافظة جنين, יהודה ושומרון, 1737, الأراضي الفلسطينية",32.5032833,35.2902515,11 to 20,POINT (35.2902515 32.5032833),Moderate
62,63,2018-10-29,14.0,קשה,אופניים,ירושלים,דרך ענתות,סמוך לכניסה לשועפט,https://www.maariv.co.il/breaking-news/Article-668128,"דרך ענתות, ירושלים","דרך שועפאט/דרך ענתות, שועפט, קרית מנחם בגין, שועפט, ירושלים, מחוז ירושלים, NO",31.808852,35.233418,11 to 20,POINT (35.233418 31.808852),Severe
63,64,2018-10-29,15.0,קשה,אופניים,ירושלים,דרך ענתות,סמוך לכניסה לשועפט,https://www.maariv.co.il/breaking-news/Article-668128,"דרך ענתות, ירושלים","דרך שועפאט/דרך ענתות, שועפט, קרית מנחם בגין, שועפט, ירושלים, מחוז ירושלים, NO",31.808852,35.233418,11 to 20,POINT (35.233418 31.808852),Severe
64,65,2018-10-29,16.0,קשה,אופניים,ירושלים,דרך ענתות,סמוך לכניסה לשועפט,https://www.maariv.co.il/breaking-news/Article-668128,"דרך ענתות, ירושלים","דרך שועפאט/דרך ענתות, שועפט, קרית מנחם בגין, שועפט, ירושלים, מחוז ירושלים, NO",31.808852,35.233418,11 to 20,POINT (35.233418 31.808852),Severe
65,66,2018-10-30,14.0,קל,אופניים חשמליים,בת ים,בן גוריון,,http://mynetbatyam.co.il/%D7%97%D7%93%D7%A9%D7%95%D7%AA/%D7%A8%D7%97%D7%95%D7%91-%D7%9B%D7%A6%D7%A0%D7%9C%D7%A1%D7%95%D7%9F-%D7%A4%D7%92%D7%A2-%D7%91%D7%A8%D7%95%D7%9B%D7%91-%D7%90%D7%95%D7%A4%D7%A0%D7%99%D7%99%D7%9D-%D7%91%D7%9F-17-%D7%95%D7%A0%D7%9E%D7%9C%D7%98-%D7%9E%D7%94%D7%96%D7%99%D7%A8%D7%94-325120/4,"בן גוריון, בת ים","בן גוריון, בת ים, שיכון ותיקים, בת ים, מחוז תל אביב, NO, ישראל",32.0210655,34.7393492,11 to 20,POINT (34.7393492 32.0210655),Minor
66,67,2018-10-31,14.0,בינוני,אופניים חשמליים,פתח תקווה,לוחמי הגטו,,https://www.mivzaklive.co.il/archives/214159,"לוחמי הגטו, פתח תקווה","לוחמי הגטו, כפר גנים ובת גנים, פתח תקווה, מחוז המרכז, NO, ישראל",32.0789858,34.8758262,11 to 20,POINT (34.8758262 32.0789858),Moderate
67,68,2018-10-31,40.0,בינוני,אופניים חשמליים,נתניה,דרך הרכבת,,http://www.netanyanet.co.il/%D7%97%D7%93%D7%A9%D7%95%D7%AA-%D7%A0%D7%AA%D7%A0%D7%99%D7%94/%D7%9E%D7%91%D7%96%D7%A7%D7%99%D7%9D/5514-%D7%97%D7%95%D7%9C%D7%A5-%D7%A6%D7%A0%D7%97%D7%9F-2,"דרך הרכבת, נתניה","נתניה, מחוז המרכז, ישראל",32.3286181,34.8566246,30 to 40,POINT (34.8566246 32.3286181),Moderate
68,69,2018-11-04,14.0,בינוני,אופניים חשמליים,אשדוד,ברנר,,https://www.maariv.co.il/breaking-news/Article-669035,"ברנר, אשדוד","ברנר, רובע ה', אשדוד, מחוז הדרום, NO, ישראל",31.7974706,34.6512315,11 to 20,POINT (34.6512315 31.7974706),Moderate
69,70,2018-11-05,60.0,הרוג,אופניים,גבעת השלושה,,כביש 483 בסמוך לכניסה,"https://www.ynet.co.il/articles/0,7340,L-5389656,00.html",גבעת השלושה,"גבעת השלושה, מחוז המרכז, ישראל",32.0980886,34.9211469,50 to 60,POINT (34.9211469 32.0980886),Death
70,71,2018-11-05,17.0,קל,אופניים חשמליים,בת ים,כצנלסון,"פינת קק""ל",https://www.hashikma-batyam.co.il/criminal_law/7179/,"כצנלסון, בת ים","כצנלסון, בת ים, שיכון ותיקים, בת ים, מחוז תל אביב, NO, ישראל",32.0203755,34.754472,11 to 20,POINT (34.754472 32.0203755),Minor
71,72,2018-11-05,30.0,קשה,אופניים חשמליים,ראשון לציון,"תש""ח","תש""ח פינת הרצל",https://www.hashikma-rishon.co.il/news/15641,"תש""ח, ראשון לציון","הרצל/שדרות תש''ח, הרצל, ראשון לציון, ראשונים, ראשון לציון, מחוז המרכז, NO, ישראל",31.955487,34.802302,21 to 30,POINT (34.802302 31.955487),Severe
72,73,2018-11-07,30.0,בינוני,אופניים חשמליים,רמת גן,ז'בוטינסקי,,https://www.maariv.co.il/breaking-news/Article-669648,"ז'בוטינסקי, רמת גן","ז'בוטינסקי, גבעת שמואל, רמת גן, מחוז תל אביב, NO, ישראל",32.0718863,34.8509527,21 to 30,POINT (34.8509527 32.0718863),Moderate
73,74,2018-11-07,10.0,קל,אופניים,אשדוד,"רשב""י",,https://ashdodonline.co.il/82548/%D7%99%D7%9C%D7%93-%D7%91%D7%9F-10-%D7%A0%D7%A4%D7%A6%D7%A2-%D7%91%D7%AA%D7%90%D7%95%D7%A0%D7%94/,"רשב""י, אשדוד","רשבי, רובע ז', אשדוד, מחוז הדרום, NO, ישראל",31.7905111,34.659407,Under 10,POINT (34.659407 31.7905111),Minor
74,75,2018-11-08,55.0,קשה,אופניים חשמליים,חיפה,הגיבורים,,https://haipo.co.il/item/109844,"הגיבורים, חיפה","הגיבורים, חיפה, עיר תחתית מזרח, חיפה, מחוז חיפה, NO, ישראל",32.8006186,35.0127952,50 to 60,POINT (35.0127952 32.8006186),Severe
75,76,2018-11-09,37.0,קשה,אופניים,תל אביב,לוינסקי,,https://www.maariv.co.il/breaking-news/Article-669858,"לוינסקי, תל אביב","לוינסקי, שוק לוינסקי, פלורנטין, תל אביב-יפו, מחוז תל אביב, NO, ישראל",32.0597076,34.7706225,30 to 40,POINT (34.7706225 32.0597076),Severe
